<UBX(NAV-POSLLH, iTOW=08:15:02, lon=23.4965408, lat=62.8060408, height=107883, hMSL=87532, hAcc=3938, vAcc=7230)>
<UBX(NAV-POSLLH, iTOW=08:15:03, lon=23.4965501, lat=62.8060435, height=107943, hMSL=87592, hAcc=2645, vAcc=5558)>
<UBX(NAV-POSLLH, iTOW=08:15:04, lon=23.4965526, lat=62.8060439, height=107935, hMSL=87584, hAcc=2109, vAcc=4785)>
<UBX(NAV-POSLLH, iTOW=08:15:05, lon=23.4965541, lat=62.8060439, height=107870, hMSL=87519, hAcc=1817, vAcc=4308)>
<UBX(NAV-POSLLH, iTOW=08:15:06, lon=23.4965546, lat=62.8060444, height=107866, hMSL=87515, hAcc=1627, vAcc=3958)>
<UBX(NAV-POSLLH, iTOW=08:15:07, lon=23.4965542, lat=62.8060476, height=107930, hMSL=87579, hAcc=1400, vAcc=1811)>
<UBX(NAV-POSLLH, iTOW=08:15:08, lon=23.4965515, lat=62.8060557, height=107936, hMSL=87585, hAcc=1159, vAcc=1713)>
<UBX(NAV-POSLLH, iTOW=08:15:09, lon=23.4965398, lat=62.8060709, height=108274, hMSL=87923, hAcc=847, vAcc=1335)>
<UBX(NAV-POSLLH, iTOW=08:15:10, lon=23.4965156, lat=62.8060888, height=108703, hMSL=88352, hAcc=697, vAcc=1105)>
<UBX(NAV-POSLLH, iTOW=08:15:11, lon=23.4964724, lat=62.8061025, height=108902, hMSL=88551, hAcc=588, vAcc=971)>
<UBX(NAV-POSLLH, iTOW=08:15:12, lon=23.4964197, lat=62.8061068, height=108966, hMSL=88615, hAcc=461, vAcc=711)>
<UBX(NAV-POSLLH, iTOW=08:15:13, lon=23.4963707, lat=62.8061007, height=109091, hMSL=88740, hAcc=391, vAcc=586)>
<UBX(NAV-POSLLH, iTOW=08:15:14, lon=23.4963309, lat=62.8060846, height=108876, hMSL=88525, hAcc=365, vAcc=527)>
<UBX(NAV-POSLLH, iTOW=08:15:15, lon=23.4963031, lat=62.8060589, height=108735, hMSL=88384, hAcc=348, vAcc=506)>
<UBX(NAV-POSLLH, iTOW=08:15:16, lon=23.4962973, lat=62.8060251, height=108775, hMSL=88424, hAcc=324, vAcc=469)>
<UBX(NAV-POSLLH, iTOW=08:15:17, lon=23.4963147, lat=62.8059876, height=108801, hMSL=88450, hAcc=312, vAcc=454)>
<UBX(NAV-POSLLH, iTOW=08:15:18, lon=23.4963466, lat=62.8059494, height=108903, hMSL=88552, hAcc=327, vAcc=471)>
<UBX(NAV-POSLLH, iTOW=08:15:19, lon=23.4963824, lat=62.8059125, height=108968, hMSL=88617, hAcc=323, vAcc=486)>
<UBX(NAV-POSLLH, iTOW=08:15:20, lon=23.4964187, lat=62.8058788, height=109136, hMSL=88785, hAcc=335, vAcc=500)>
<UBX(NAV-POSLLH, iTOW=08:15:21, lon=23.4964531, lat=62.8058492, height=109070, hMSL=88719, hAcc=336, vAcc=523)>
<UBX(NAV-POSLLH, iTOW=08:15:22, lon=23.4964927, lat=62.8058234, height=108996, hMSL=88646, hAcc=363, vAcc=528)>
<UBX(NAV-POSLLH, iTOW=08:15:23, lon=23.4965454, lat=62.8058047, height=108956, hMSL=88605, hAcc=340, vAcc=515)>
<UBX(NAV-POSLLH, iTOW=08:15:24, lon=23.496608, lat=62.8057975, height=108961, hMSL=88610, hAcc=315, vAcc=486)>
<UBX(NAV-POSLLH, iTOW=08:15:25, lon=23.4966761, lat=62.8058059, height=108956, hMSL=88606, hAcc=262, vAcc=424)>
<UBX(NAV-POSLLH, iTOW=08:15:26, lon=23.4967346, lat=62.8058312, height=108922, hMSL=88571, hAcc=215, vAcc=364)>
<UBX(NAV-POSLLH, iTOW=08:15:27, lon=23.4967674, lat=62.8058689, height=108820, hMSL=88469, hAcc=203, vAcc=343)>
<UBX(NAV-POSLLH, iTOW=08:15:28, lon=23.4967766, lat=62.8059139, height=108800, hMSL=88449, hAcc=201, vAcc=330)>
<UBX(NAV-POSLLH, iTOW=08:15:29, lon=23.496778, lat=62.8059657, height=108792, hMSL=88442, hAcc=194, vAcc=313)>
<UBX(NAV-POSLLH, iTOW=08:15:30, lon=23.4967789, lat=62.8060265, height=108776, hMSL=88425, hAcc=192, vAcc=323)>
<UBX(NAV-POSLLH, iTOW=08:15:31, lon=23.4967818, lat=62.8060969, height=108702, hMSL=88351, hAcc=207, vAcc=345)>
<UBX(NAV-POSLLH, iTOW=08:15:32, lon=23.4967868, lat=62.8061766, height=108791, hMSL=88440, hAcc=215, vAcc=360)>
<UBX(NAV-POSLLH, iTOW=08:15:33, lon=23.4967933, lat=62.806264, height=108934, hMSL=88583, hAcc=228, vAcc=365)>
<UBX(NAV-POSLLH, iTOW=08:15:34, lon=23.4967983, lat=62.8063539, height=108955, hMSL=88604, hAcc=245, vAcc=405)>
<UBX(NAV-POSLLH, iTOW=08:15:35, lon=23.4967999, lat=62.8064419, height=108994, hMSL=88643, hAcc=253, vAcc=436)>
<UBX(NAV-POSLLH, iTOW=08:15:36, lon=23.4968019, lat=62.8065286, height=108963, hMSL=88612, hAcc=281, vAcc=459)>
<UBX(NAV-POSLLH, iTOW=08:15:37, lon=23.496801, lat=62.8066162, height=108835, hMSL=88484, hAcc=281, vAcc=454)>
<UBX(NAV-POSLLH, iTOW=08:15:38, lon=23.4967922, lat=62.8067076, height=108583, hMSL=88232, hAcc=284, vAcc=425)>
<UBX(NAV-POSLLH, iTOW=08:15:39, lon=23.4967751, lat=62.806802, height=108318, hMSL=87967, hAcc=256, vAcc=368)>
<UBX(NAV-POSLLH, iTOW=08:15:40, lon=23.4967534, lat=62.8068994, height=107946, hMSL=87595, hAcc=211, vAcc=334)>
<UBX(NAV-POSLLH, iTOW=08:15:41, lon=23.4967384, lat=62.806998, height=108025, hMSL=87673, hAcc=265, vAcc=424)>
<UBX(NAV-POSLLH, iTOW=08:15:42, lon=23.4967215, lat=62.8070945, height=108185, hMSL=87833, hAcc=329, vAcc=530)>
<UBX(NAV-POSLLH, iTOW=08:15:43, lon=23.4967044, lat=62.807189, height=108335, hMSL=87983, hAcc=331, vAcc=492)>
<UBX(NAV-POSLLH, iTOW=08:15:44, lon=23.4966897, lat=62.8072815, height=108680, hMSL=88328, hAcc=351, vAcc=564)>
<UBX(NAV-POSLLH, iTOW=08:15:45, lon=23.4966696, lat=62.8073727, height=109402, hMSL=89050, hAcc=331, vAcc=622)>
<UBX(NAV-POSLLH, iTOW=08:15:46, lon=23.4966527, lat=62.8074616, height=109636, hMSL=89284, hAcc=360, vAcc=685)>
<UBX(NAV-POSLLH, iTOW=08:15:47, lon=23.4966381, lat=62.8075501, height=109843, hMSL=89491, hAcc=386, vAcc=716)>
<UBX(NAV-POSLLH, iTOW=08:15:48, lon=23.4966263, lat=62.8076392, height=109397, hMSL=89045, hAcc=253, vAcc=492)>
<UBX(NAV-POSLLH, iTOW=08:15:49, lon=23.496612, lat=62.8077282, height=109566, hMSL=89213, hAcc=260, vAcc=520)>
<UBX(NAV-POSLLH, iTOW=08:15:50, lon=23.4965952, lat=62.8078207, height=109515, hMSL=89163, hAcc=250, vAcc=458)>
<UBX(NAV-POSLLH, iTOW=08:15:51, lon=23.4965798, lat=62.8079145, height=109231, hMSL=88878, hAcc=260, vAcc=499)>
<UBX(NAV-POSLLH, iTOW=08:15:52, lon=23.4965605, lat=62.8080109, height=108927, hMSL=88575, hAcc=274, vAcc=534)>
<UBX(NAV-POSLLH, iTOW=08:15:53, lon=23.4965315, lat=62.8081078, height=109119, hMSL=88766, hAcc=283, vAcc=524)>
<UBX(NAV-POSLLH, iTOW=08:15:54, lon=23.4964845, lat=62.8082035, height=109334, hMSL=88981, hAcc=280, vAcc=510)>
<UBX(NAV-POSLLH, iTOW=08:15:55, lon=23.4964144, lat=62.8082954, height=109316, hMSL=88963, hAcc=323, vAcc=573)>
<UBX(NAV-POSLLH, iTOW=08:15:56, lon=23.4963206, lat=62.8083831, height=109127, hMSL=88774, hAcc=336, vAcc=535)>
<UBX(NAV-POSLLH, iTOW=08:15:57, lon=23.4962045, lat=62.8084654, height=109218, hMSL=88865, hAcc=315, vAcc=528)>
<UBX(NAV-POSLLH, iTOW=08:15:58, lon=23.4960738, lat=62.8085426, height=109197, hMSL=88843, hAcc=292, vAcc=463)>
<UBX(NAV-POSLLH, iTOW=08:15:59, lon=23.4959484, lat=62.80862, height=108784, hMSL=88431, hAcc=305, vAcc=497)>
<UBX(NAV-POSLLH, iTOW=08:16:00, lon=23.495832, lat=62.8087035, height=108581, hMSL=88228, hAcc=318, vAcc=542)>
<UBX(NAV-POSLLH, iTOW=08:16:01, lon=23.4957271, lat=62.8087942, height=108618, hMSL=88264, hAcc=230, vAcc=413)>
<UBX(NAV-POSLLH, iTOW=08:16:02, lon=23.4956304, lat=62.8088869, height=108786, hMSL=88432, hAcc=190, vAcc=328)>
<UBX(NAV-POSLLH, iTOW=08:16:03, lon=23.4955434, lat=62.8089814, height=108847, hMSL=88493, hAcc=217, vAcc=370)>
<UBX(NAV-POSLLH, iTOW=08:16:04, lon=23.4954738, lat=62.809078, height=109058, hMSL=88704, hAcc=249, vAcc=372)>
<UBX(NAV-POSLLH, iTOW=08:16:05, lon=23.4954386, lat=62.8091727, height=109398, hMSL=89044, hAcc=285, vAcc=487)>
<UBX(NAV-POSLLH, iTOW=08:16:06, lon=23.4954465, lat=62.8092666, height=109178, hMSL=88824, hAcc=291, vAcc=493)>
<UBX(NAV-POSLLH, iTOW=08:16:07, lon=23.4954901, lat=62.8093582, height=108969, hMSL=88615, hAcc=238, vAcc=439)>
<UBX(NAV-POSLLH, iTOW=08:16:08, lon=23.4955638, lat=62.8094441, height=109057, hMSL=88703, hAcc=233, vAcc=463)>
<UBX(NAV-POSLLH, iTOW=08:16:09, lon=23.4956718, lat=62.8095224, height=109198, hMSL=88843, hAcc=267, vAcc=512)>
<UBX(NAV-POSLLH, iTOW=08:16:10, lon=23.4958105, lat=62.8095967, height=109223, hMSL=88869, hAcc=247, vAcc=489)>
<UBX(NAV-POSLLH, iTOW=08:16:11, lon=23.4959701, lat=62.8096627, height=108876, hMSL=88522, hAcc=215, vAcc=389)>
<UBX(NAV-POSLLH, iTOW=08:16:12, lon=23.4961434, lat=62.8097244, height=108618, hMSL=88264, hAcc=182, vAcc=336)>
<UBX(NAV-POSLLH, iTOW=08:16:13, lon=23.4963236, lat=62.8097853, height=108605, hMSL=88251, hAcc=181, vAcc=285)>
<UBX(NAV-POSLLH, iTOW=08:16:14, lon=23.4965094, lat=62.809845, height=108596, hMSL=88242, hAcc=236, vAcc=316)>
<UBX(NAV-POSLLH, iTOW=08:16:15, lon=23.4966949, lat=62.8099041, height=108437, hMSL=88083, hAcc=232, vAcc=325)>
<UBX(NAV-POSLLH, iTOW=08:16:16, lon=23.4968779, lat=62.8099641, height=108191, hMSL=87837, hAcc=176, vAcc=332)>
<UBX(NAV-POSLLH, iTOW=08:16:17, lon=23.4970599, lat=62.8100238, height=107915, hMSL=87561, hAcc=175, vAcc=342)>
<UBX(NAV-POSLLH, iTOW=08:16:18, lon=23.497241, lat=62.810083, height=107533, hMSL=87179, hAcc=186, vAcc=332)>
<UBX(NAV-POSLLH, iTOW=08:16:19, lon=23.4974208, lat=62.8101423, height=107234, hMSL=86880, hAcc=185, vAcc=321)>
<UBX(NAV-POSLLH, iTOW=08:16:20, lon=23.497597, lat=62.8102031, height=107081, hMSL=86727, hAcc=142, vAcc=287)>
<UBX(NAV-POSLLH, iTOW=08:16:21, lon=23.4977672, lat=62.8102655, height=107086, hMSL=86732, hAcc=134, vAcc=273)>
<UBX(NAV-POSLLH, iTOW=08:16:22, lon=23.4979101, lat=62.81034, height=105365, hMSL=85012, hAcc=15, vAcc=21)>
<UBX(NAV-POSLLH, iTOW=08:16:23, lon=23.4980384, lat=62.8104177, height=105405, hMSL=85051, hAcc=23, vAcc=23)>
<UBX(NAV-POSLLH, iTOW=08:16:24, lon=23.4981463, lat=62.8105002, height=105386, hMSL=85033, hAcc=19, vAcc=22)>
<UBX(NAV-POSLLH, iTOW=08:16:25, lon=23.4982485, lat=62.810584, height=105325, hMSL=84971, hAcc=17, vAcc=17)>
<UBX(NAV-POSLLH, iTOW=08:16:26, lon=23.4983549, lat=62.8106675, height=105298, hMSL=84944, hAcc=14, vAcc=16)>
<UBX(NAV-POSLLH, iTOW=08:16:27, lon=23.4984749, lat=62.8107488, height=105187, hMSL=84833, hAcc=14, vAcc=16)>
<UBX(NAV-POSLLH, iTOW=08:16:28, lon=23.4986143, lat=62.8108256, height=104755, hMSL=84401, hAcc=15, vAcc=21)>
<UBX(NAV-POSLLH, iTOW=08:16:29, lon=23.4987704, lat=62.8108992, height=104473, hMSL=84119, hAcc=18, vAcc=27)>
<UBX(NAV-POSLLH, iTOW=08:16:30, lon=23.4989354, lat=62.8109703, height=104207, hMSL=83853, hAcc=18, vAcc=31)>
<UBX(NAV-POSLLH, iTOW=08:16:31, lon=23.4991062, lat=62.8110398, height=104195, hMSL=83841, hAcc=44, vAcc=52)>
<UBX(NAV-POSLLH, iTOW=08:16:32, lon=23.4992789, lat=62.8111079, height=104145, hMSL=83791, hAcc=30, vAcc=61)>
<UBX(NAV-POSLLH, iTOW=08:16:33, lon=23.499452, lat=62.8111748, height=104035, hMSL=83681, hAcc=24, vAcc=52)>
<UBX(NAV-POSLLH, iTOW=08:16:34, lon=23.4996249, lat=62.8112403, height=103972, hMSL=83618, hAcc=21, vAcc=37)>
<UBX(NAV-POSLLH, iTOW=08:16:35, lon=23.4997997, lat=62.8113028, height=104062, hMSL=83709, hAcc=28, vAcc=44)>
<UBX(NAV-POSLLH, iTOW=08:16:36, lon=23.4999789, lat=62.8113601, height=104343, hMSL=83989, hAcc=28, vAcc=44)>
<UBX(NAV-POSLLH, iTOW=08:16:37, lon=23.5001665, lat=62.8114083, height=104465, hMSL=84111, hAcc=51, vAcc=71)>
<UBX(NAV-POSLLH, iTOW=08:16:38, lon=23.5003593, lat=62.8114488, height=104611, hMSL=84257, hAcc=57, vAcc=95)>
<UBX(NAV-POSLLH, iTOW=08:16:39, lon=23.5005527, lat=62.8114842, height=104730, hMSL=84376, hAcc=60, vAcc=132)>
<UBX(NAV-POSLLH, iTOW=08:16:40, lon=23.5007464, lat=62.8115166, height=104743, hMSL=84390, hAcc=43, vAcc=70)>
<UBX(NAV-POSLLH, iTOW=08:16:41, lon=23.5009409, lat=62.8115453, height=104815, hMSL=84462, hAcc=22, vAcc=50)>
<UBX(NAV-POSLLH, iTOW=08:16:42, lon=23.5011339, lat=62.8115728, height=105025, hMSL=84671, hAcc=21, vAcc=51)>
<UBX(NAV-POSLLH, iTOW=08:16:43, lon=23.5013245, lat=62.8115998, height=105326, hMSL=84973, hAcc=21, vAcc=48)>
<UBX(NAV-POSLLH, iTOW=08:16:44, lon=23.5015091, lat=62.8116276, height=105526, hMSL=85172, hAcc=19, vAcc=42)>
<UBX(NAV-POSLLH, iTOW=08:16:45, lon=23.5016862, lat=62.8116553, height=105651, hMSL=85297, hAcc=39, vAcc=56)>
<UBX(NAV-POSLLH, iTOW=08:16:46, lon=23.5018549, lat=62.8116843, height=105769, hMSL=85415, hAcc=44, vAcc=54)>
<UBX(NAV-POSLLH, iTOW=08:16:47, lon=23.502016, lat=62.8117139, height=105871, hMSL=85518, hAcc=24, vAcc=39)>
<UBX(NAV-POSLLH, iTOW=08:16:48, lon=23.5021646, lat=62.8117478, height=106100, hMSL=85747, hAcc=22, vAcc=36)>
<UBX(NAV-POSLLH, iTOW=08:16:49, lon=23.502299, lat=62.8117881, height=106293, hMSL=85940, hAcc=20, vAcc=38)>
<UBX(NAV-POSLLH, iTOW=08:16:50, lon=23.5024204, lat=62.8118377, height=106451, hMSL=86098, hAcc=19, vAcc=31)>
<UBX(NAV-POSLLH, iTOW=08:16:51, lon=23.502523, lat=62.8118981, height=106545, hMSL=86192, hAcc=22, vAcc=49)>
<UBX(NAV-POSLLH, iTOW=08:16:52, lon=23.5026038, lat=62.8119676, height=106720, hMSL=86367, hAcc=22, vAcc=40)>
<UBX(NAV-POSLLH, iTOW=08:16:53, lon=23.5026689, lat=62.812044, height=106806, hMSL=86453, hAcc=32, vAcc=38)>
<UBX(NAV-POSLLH, iTOW=08:16:54, lon=23.5027314, lat=62.8121241, height=106907, hMSL=86554, hAcc=44, vAcc=43)>
<UBX(NAV-POSLLH, iTOW=08:16:55, lon=23.5028097, lat=62.8122041, height=107800, hMSL=87447, hAcc=124, vAcc=227)>
<UBX(NAV-POSLLH, iTOW=08:16:56, lon=23.5028907, lat=62.8122899, height=107833, hMSL=87480, hAcc=75, vAcc=131)>
<UBX(NAV-POSLLH, iTOW=08:16:57, lon=23.5029614, lat=62.8123765, height=107974, hMSL=87621, hAcc=88, vAcc=179)>
<UBX(NAV-POSLLH, iTOW=08:16:58, lon=23.5030156, lat=62.8124639, height=107861, hMSL=87508, hAcc=59, vAcc=137)>
<UBX(NAV-POSLLH, iTOW=08:16:59, lon=23.5030681, lat=62.8125466, height=108018, hMSL=87665, hAcc=74, vAcc=183)>
<UBX(NAV-POSLLH, iTOW=08:17:00, lon=23.5031154, lat=62.8126207, height=107752, hMSL=87399, hAcc=48, vAcc=104)>
<UBX(NAV-POSLLH, iTOW=08:17:01, lon=23.5031578, lat=62.812681, height=107721, hMSL=87368, hAcc=42, vAcc=87)>
<UBX(NAV-POSLLH, iTOW=08:17:02, lon=23.5031935, lat=62.8127282, height=107679, hMSL=87325, hAcc=36, vAcc=70)>
<UBX(NAV-POSLLH, iTOW=08:17:03, lon=23.5032244, lat=62.8127669, height=107585, hMSL=87232, hAcc=25, vAcc=47)>
<UBX(NAV-POSLLH, iTOW=08:17:04, lon=23.5032617, lat=62.8128026, height=107680, hMSL=87327, hAcc=33, vAcc=60)>
<UBX(NAV-POSLLH, iTOW=08:17:05, lon=23.5033094, lat=62.812834, height=107659, hMSL=87305, hAcc=27, vAcc=51)>
<UBX(NAV-POSLLH, iTOW=08:17:06, lon=23.5033777, lat=62.8128545, height=107464, hMSL=87110, hAcc=14, vAcc=20)>
<UBX(NAV-POSLLH, iTOW=08:17:07, lon=23.5034629, lat=62.8128559, height=107508, hMSL=87155, hAcc=14, vAcc=18)>
<UBX(NAV-POSLLH, iTOW=08:17:08, lon=23.5035431, lat=62.8128357, height=107554, hMSL=87201, hAcc=14, vAcc=17)>
<UBX(NAV-POSLLH, iTOW=08:17:09, lon=23.5036066, lat=62.8127964, height=107569, hMSL=87216, hAcc=14, vAcc=15)>
<UBX(NAV-POSLLH, iTOW=08:17:10, lon=23.5036677, lat=62.8127446, height=107589, hMSL=87236, hAcc=14, vAcc=16)>
<UBX(NAV-POSLLH, iTOW=08:17:11, lon=23.5037366, lat=62.8126839, height=107654, hMSL=87301, hAcc=14, vAcc=15)>
<UBX(NAV-POSLLH, iTOW=08:17:12, lon=23.5038159, lat=62.8126144, height=107645, hMSL=87292, hAcc=16, vAcc=24)>
<UBX(NAV-POSLLH, iTOW=08:17:13, lon=23.5039035, lat=62.8125355, height=107669, hMSL=87317, hAcc=14, vAcc=18)>
<UBX(NAV-POSLLH, iTOW=08:17:14, lon=23.5039965, lat=62.8124494, height=107635, hMSL=87283, hAcc=14, vAcc=19)>
<UBX(NAV-POSLLH, iTOW=08:17:15, lon=23.5040862, lat=62.8123631, height=107635, hMSL=87283, hAcc=14, vAcc=19)>
<UBX(NAV-POSLLH, iTOW=08:17:16, lon=23.5041727, lat=62.8122777, height=107624, hMSL=87272, hAcc=14, vAcc=14)>
<UBX(NAV-POSLLH, iTOW=08:17:17, lon=23.5042566, lat=62.8121913, height=107552, hMSL=87200, hAcc=14, vAcc=17)>
<UBX(NAV-POSLLH, iTOW=08:17:18, lon=23.5043385, lat=62.8121038, height=107506, hMSL=87154, hAcc=14, vAcc=13)>
<UBX(NAV-POSLLH, iTOW=08:17:19, lon=23.5044176, lat=62.8120153, height=107443, hMSL=87091, hAcc=14, vAcc=12)>
<UBX(NAV-POSLLH, iTOW=08:17:20, lon=23.5044933, lat=62.8119266, height=107391, hMSL=87039, hAcc=14, vAcc=11)>
<UBX(NAV-POSLLH, iTOW=08:17:21, lon=23.5045668, lat=62.8118388, height=107344, hMSL=86992, hAcc=14, vAcc=13)>
<UBX(NAV-POSLLH, iTOW=08:17:22, lon=23.5046388, lat=62.8117518, height=107293, hMSL=86941, hAcc=14, vAcc=16)>
<UBX(NAV-POSLLH, iTOW=08:17:23, lon=23.5047064, lat=62.8116641, height=107262, hMSL=86910, hAcc=14, vAcc=15)>
<UBX(NAV-POSLLH, iTOW=08:17:24, lon=23.5047709, lat=62.8115752, height=107242, hMSL=86891, hAcc=14, vAcc=15)>
<UBX(NAV-POSLLH, iTOW=08:17:25, lon=23.5048309, lat=62.8114846, height=107231, hMSL=86880, hAcc=14, vAcc=15)>
<UBX(NAV-POSLLH, iTOW=08:17:26, lon=23.504886, lat=62.8113934, height=107188, hMSL=86837, hAcc=14, vAcc=12)>
<UBX(NAV-POSLLH, iTOW=08:17:27, lon=23.5049362, lat=62.8113022, height=107152, hMSL=86800, hAcc=14, vAcc=13)>
<UBX(NAV-POSLLH, iTOW=08:17:28, lon=23.5049816, lat=62.8112102, height=107128, hMSL=86777, hAcc=14, vAcc=13)>
<UBX(NAV-POSLLH, iTOW=08:17:29, lon=23.5050228, lat=62.8111168, height=107077, hMSL=86726, hAcc=14, vAcc=15)>
<UBX(NAV-POSLLH, iTOW=08:17:30, lon=23.5050583, lat=62.8110235, height=107006, hMSL=86655, hAcc=14, vAcc=15)>
<UBX(NAV-POSLLH, iTOW=08:17:31, lon=23.5050875, lat=62.8109311, height=106951, hMSL=86600, hAcc=14, vAcc=15)>
<UBX(NAV-POSLLH, iTOW=08:17:32, lon=23.5051117, lat=62.8108384, height=106899, hMSL=86548, hAcc=14, vAcc=14)>
<UBX(NAV-POSLLH, iTOW=08:17:33, lon=23.5051312, lat=62.8107454, height=106861, hMSL=86511, hAcc=14, vAcc=15)>
<UBX(NAV-POSLLH, iTOW=08:17:34, lon=23.5051462, lat=62.8106536, height=106800, hMSL=86449, hAcc=14, vAcc=15)>
<UBX(NAV-POSLLH, iTOW=08:17:35, lon=23.5051573, lat=62.8105644, height=106816, hMSL=86466, hAcc=14, vAcc=17)>
<UBX(NAV-POSLLH, iTOW=08:17:36, lon=23.5051668, lat=62.8104826, height=106811, hMSL=86460, hAcc=15, vAcc=22)>
<UBX(NAV-POSLLH, iTOW=08:17:37, lon=23.5051736, lat=62.8104114, height=106875, hMSL=86525, hAcc=17, vAcc=23)>
<UBX(NAV-POSLLH, iTOW=08:17:38, lon=23.5051799, lat=62.8103517, height=106917, hMSL=86567, hAcc=16, vAcc=25)>
<UBX(NAV-POSLLH, iTOW=08:17:39, lon=23.5051851, lat=62.8103031, height=106901, hMSL=86550, hAcc=15, vAcc=27)>
<UBX(NAV-POSLLH, iTOW=08:17:40, lon=23.5051894, lat=62.8102627, height=106915, hMSL=86565, hAcc=14, vAcc=24)>
<UBX(NAV-POSLLH, iTOW=08:17:41, lon=23.5051928, lat=62.8102269, height=106917, hMSL=86566, hAcc=14, vAcc=24)>
<UBX(NAV-POSLLH, iTOW=08:17:42, lon=23.5051959, lat=62.8101928, height=106929, hMSL=86579, hAcc=15, vAcc=25)>
<UBX(NAV-POSLLH, iTOW=08:17:43, lon=23.505199, lat=62.8101583, height=106949, hMSL=86599, hAcc=15, vAcc=27)>
<UBX(NAV-POSLLH, iTOW=08:17:44, lon=23.505203, lat=62.8101174, height=106947, hMSL=86597, hAcc=15, vAcc=27)>
<UBX(NAV-POSLLH, iTOW=08:17:45, lon=23.5052085, lat=62.8100655, height=106960, hMSL=86610, hAcc=18, vAcc=29)>
<UBX(NAV-POSLLH, iTOW=08:17:46, lon=23.5052146, lat=62.8100022, height=106992, hMSL=86642, hAcc=18, vAcc=28)>
<UBX(NAV-POSLLH, iTOW=08:17:47, lon=23.5052208, lat=62.8099312, height=107051, hMSL=86701, hAcc=17, vAcc=28)>
<UBX(NAV-POSLLH, iTOW=08:17:48, lon=23.5052257, lat=62.8098614, height=107104, hMSL=86754, hAcc=21, vAcc=30)>
<UBX(NAV-POSLLH, iTOW=08:17:49, lon=23.5052312, lat=62.8097902, height=107138, hMSL=86788, hAcc=24, vAcc=32)>
<UBX(NAV-POSLLH, iTOW=08:17:50, lon=23.5052414, lat=62.8097105, height=107182, hMSL=86832, hAcc=25, vAcc=32)>
<UBX(NAV-POSLLH, iTOW=08:17:51, lon=23.5052553, lat=62.8096221, height=107175, hMSL=86825, hAcc=25, vAcc=33)>
<UBX(NAV-POSLLH, iTOW=08:17:52, lon=23.5052712, lat=62.8095249, height=107195, hMSL=86846, hAcc=31, vAcc=35)>
<UBX(NAV-POSLLH, iTOW=08:17:53, lon=23.5052892, lat=62.8094241, height=107233, hMSL=86884, hAcc=32, vAcc=36)>
<UBX(NAV-POSLLH, iTOW=08:17:54, lon=23.5053089, lat=62.8093253, height=107284, hMSL=86935, hAcc=26, vAcc=37)>
<UBX(NAV-POSLLH, iTOW=08:17:55, lon=23.5053319, lat=62.809227, height=107340, hMSL=86991, hAcc=25, vAcc=37)>
<UBX(NAV-POSLLH, iTOW=08:17:56, lon=23.5053576, lat=62.8091281, height=107357, hMSL=87007, hAcc=24, vAcc=38)>
<UBX(NAV-POSLLH, iTOW=08:17:57, lon=23.5053846, lat=62.8090284, height=107389, hMSL=87040, hAcc=24, vAcc=39)>
<UBX(NAV-POSLLH, iTOW=08:17:58, lon=23.5054131, lat=62.8089282, height=107458, hMSL=87109, hAcc=24, vAcc=40)>
<UBX(NAV-POSLLH, iTOW=08:17:59, lon=23.5054444, lat=62.8088276, height=107503, hMSL=87154, hAcc=25, vAcc=42)>
<UBX(NAV-POSLLH, iTOW=08:18:00, lon=23.5054811, lat=62.8087267, height=107574, hMSL=87226, hAcc=27, vAcc=46)>
<UBX(NAV-POSLLH, iTOW=08:18:01, lon=23.5055261, lat=62.808626, height=107595, hMSL=87246, hAcc=31, vAcc=54)>
<UBX(NAV-POSLLH, iTOW=08:18:02, lon=23.5055799, lat=62.808526, height=107645, hMSL=87296, hAcc=31, vAcc=54)>
<UBX(NAV-POSLLH, iTOW=08:18:03, lon=23.5056421, lat=62.808427, height=107730, hMSL=87382, hAcc=31, vAcc=52)>
<UBX(NAV-POSLLH, iTOW=08:18:04, lon=23.5057151, lat=62.8083304, height=107771, hMSL=87422, hAcc=31, vAcc=52)>
<UBX(NAV-POSLLH, iTOW=08:18:05, lon=23.5057974, lat=62.8082379, height=107793, hMSL=87445, hAcc=30, vAcc=48)>
<UBX(NAV-POSLLH, iTOW=08:18:06, lon=23.5058864, lat=62.8081497, height=107853, hMSL=87505, hAcc=30, vAcc=50)>
<UBX(NAV-POSLLH, iTOW=08:18:07, lon=23.505978, lat=62.8080665, height=107923, hMSL=87575, hAcc=35, vAcc=60)>
<UBX(NAV-POSLLH, iTOW=08:18:08, lon=23.5060643, lat=62.8079913, height=107945, hMSL=87597, hAcc=36, vAcc=61)>
<UBX(NAV-POSLLH, iTOW=08:18:09, lon=23.5061404, lat=62.807926, height=107951, hMSL=87603, hAcc=36, vAcc=62)>
<UBX(NAV-POSLLH, iTOW=08:18:10, lon=23.5062013, lat=62.8078724, height=107953, hMSL=87605, hAcc=36, vAcc=63)>
<UBX(NAV-POSLLH, iTOW=08:18:11, lon=23.5062477, lat=62.8078301, height=107957, hMSL=87610, hAcc=36, vAcc=63)>
<UBX(NAV-POSLLH, iTOW=08:18:12, lon=23.5062894, lat=62.8077929, height=108007, hMSL=87660, hAcc=36, vAcc=63)>
<UBX(NAV-POSLLH, iTOW=08:18:13, lon=23.5063291, lat=62.8077578, height=108114, hMSL=87767, hAcc=37, vAcc=66)>
<UBX(NAV-POSLLH, iTOW=08:18:14, lon=23.5063706, lat=62.8077221, height=108155, hMSL=87808, hAcc=38, vAcc=70)>
<UBX(NAV-POSLLH, iTOW=08:18:15, lon=23.5064139, lat=62.8076846, height=108224, hMSL=87877, hAcc=42, vAcc=76)>
<UBX(NAV-POSLLH, iTOW=08:18:16, lon=23.5064571, lat=62.8076462, height=108184, hMSL=87836, hAcc=39, vAcc=66)>
<UBX(NAV-POSLLH, iTOW=08:18:17, lon=23.506499, lat=62.8076072, height=108112, hMSL=87765, hAcc=39, vAcc=65)>
<UBX(NAV-POSLLH, iTOW=08:18:18, lon=23.5065426, lat=62.8075645, height=108103, hMSL=87755, hAcc=42, vAcc=66)>
<UBX(NAV-POSLLH, iTOW=08:18:19, lon=23.5065907, lat=62.8075128, height=108116, hMSL=87769, hAcc=42, vAcc=67)>
<UBX(NAV-POSLLH, iTOW=08:18:20, lon=23.5066436, lat=62.8074491, height=108158, hMSL=87811, hAcc=42, vAcc=66)>
<UBX(NAV-POSLLH, iTOW=08:18:21, lon=23.5066969, lat=62.8073744, height=108203, hMSL=87856, hAcc=47, vAcc=76)>
<UBX(NAV-POSLLH, iTOW=08:18:22, lon=23.5067416, lat=62.8072983, height=108201, hMSL=87854, hAcc=48, vAcc=78)>
<UBX(NAV-POSLLH, iTOW=08:18:23, lon=23.506779, lat=62.8072223, height=108221, hMSL=87874, hAcc=49, vAcc=79)>
<UBX(NAV-POSLLH, iTOW=08:18:24, lon=23.5068118, lat=62.8071428, height=108271, hMSL=87925, hAcc=48, vAcc=78)>
<UBX(NAV-POSLLH, iTOW=08:18:25, lon=23.5068368, lat=62.8070575, height=108305, hMSL=87958, hAcc=48, vAcc=78)>
<UBX(NAV-POSLLH, iTOW=08:18:26, lon=23.5068515, lat=62.8069659, height=108293, hMSL=87947, hAcc=46, vAcc=74)>
<UBX(NAV-POSLLH, iTOW=08:18:27, lon=23.506855, lat=62.8068735, height=108283, hMSL=87937, hAcc=45, vAcc=69)>
<UBX(NAV-POSLLH, iTOW=08:18:28, lon=23.5068493, lat=62.8067821, height=108261, hMSL=87915, hAcc=45, vAcc=68)>
<UBX(NAV-POSLLH, iTOW=08:18:29, lon=23.506836, lat=62.8066898, height=108325, hMSL=87979, hAcc=42, vAcc=65)>
<UBX(NAV-POSLLH, iTOW=08:18:30, lon=23.5068161, lat=62.8065955, height=108312, hMSL=87965, hAcc=26, vAcc=37)>
<UBX(NAV-POSLLH, iTOW=08:18:31, lon=23.5067958, lat=62.8064989, height=108287, hMSL=87941, hAcc=31, vAcc=30)>
<UBX(NAV-POSLLH, iTOW=08:18:32, lon=23.5067754, lat=62.8064013, height=108256, hMSL=87910, hAcc=21, vAcc=16)>
<UBX(NAV-POSLLH, iTOW=08:18:33, lon=23.5067549, lat=62.806303, height=108163, hMSL=87817, hAcc=26, vAcc=18)>
<UBX(NAV-POSLLH, iTOW=08:18:34, lon=23.5067345, lat=62.8062044, height=108130, hMSL=87784, hAcc=22, vAcc=17)>
<UBX(NAV-POSLLH, iTOW=08:18:35, lon=23.5067158, lat=62.806106, height=108098, hMSL=87752, hAcc=24, vAcc=16)>
<UBX(NAV-POSLLH, iTOW=08:18:36, lon=23.5067012, lat=62.8060077, height=108089, hMSL=87743, hAcc=14, vAcc=14)>
<UBX(NAV-POSLLH, iTOW=08:18:37, lon=23.5066921, lat=62.8059093, height=108029, hMSL=87683, hAcc=14, vAcc=16)>
<UBX(NAV-POSLLH, iTOW=08:18:38, lon=23.5066928, lat=62.8058098, height=107979, hMSL=87633, hAcc=14, vAcc=14)>
<UBX(NAV-POSLLH, iTOW=08:18:39, lon=23.5067024, lat=62.8057099, height=107920, hMSL=87575, hAcc=14, vAcc=15)>
<UBX(NAV-POSLLH, iTOW=08:18:40, lon=23.5067231, lat=62.8056096, height=107855, hMSL=87510, hAcc=14, vAcc=13)>
<UBX(NAV-POSLLH, iTOW=08:18:41, lon=23.5067554, lat=62.8055094, height=107828, hMSL=87482, hAcc=14, vAcc=13)>
<UBX(NAV-POSLLH, iTOW=08:18:42, lon=23.5067976, lat=62.8054095, height=107763, hMSL=87418, hAcc=14, vAcc=13)>
<UBX(NAV-POSLLH, iTOW=08:18:43, lon=23.5068445, lat=62.80531, height=107735, hMSL=87390, hAcc=14, vAcc=12)>
<UBX(NAV-POSLLH, iTOW=08:18:44, lon=23.5068918, lat=62.8052108, height=107689, hMSL=87344, hAcc=14, vAcc=12)>
<UBX(NAV-POSLLH, iTOW=08:18:45, lon=23.5069392, lat=62.8051117, height=107624, hMSL=87279, hAcc=14, vAcc=12)>
<UBX(NAV-POSLLH, iTOW=08:18:46, lon=23.5069864, lat=62.8050131, height=107589, hMSL=87244, hAcc=14, vAcc=12)>
<UBX(NAV-POSLLH, iTOW=08:18:47, lon=23.5070347, lat=62.8049152, height=107559, hMSL=87214, hAcc=14, vAcc=12)>
<UBX(NAV-POSLLH, iTOW=08:18:48, lon=23.5070843, lat=62.8048177, height=107540, hMSL=87196, hAcc=14, vAcc=11)>
<UBX(NAV-POSLLH, iTOW=08:18:49, lon=23.5071341, lat=62.8047209, height=107472, hMSL=87128, hAcc=14, vAcc=12)>
<UBX(NAV-POSLLH, iTOW=08:18:50, lon=23.5071821, lat=62.8046258, height=107420, hMSL=87075, hAcc=14, vAcc=12)>
<UBX(NAV-POSLLH, iTOW=08:18:51, lon=23.5072278, lat=62.8045348, height=107350, hMSL=87006, hAcc=14, vAcc=12)>
<UBX(NAV-POSLLH, iTOW=08:18:52, lon=23.5072689, lat=62.8044531, height=107308, hMSL=86964, hAcc=14, vAcc=12)>
<UBX(NAV-POSLLH, iTOW=08:18:53, lon=23.5073019, lat=62.8043838, height=107283, hMSL=86939, hAcc=14, vAcc=12)>
<UBX(NAV-POSLLH, iTOW=08:18:54, lon=23.5073129, lat=62.8043274, height=107239, hMSL=86895, hAcc=14, vAcc=12)>
<UBX(NAV-POSLLH, iTOW=08:18:55, lon=23.5072844, lat=62.8042797, height=107154, hMSL=86809, hAcc=14, vAcc=12)>
<UBX(NAV-POSLLH, iTOW=08:18:56, lon=23.5072114, lat=62.8042418, height=107043, hMSL=86699, hAcc=14, vAcc=13)>
<UBX(NAV-POSLLH, iTOW=08:18:57, lon=23.5070957, lat=62.804216, height=106714, hMSL=86370, hAcc=15, vAcc=17)>
<UBX(NAV-POSLLH, iTOW=08:18:58, lon=23.5069461, lat=62.804192, height=106295, hMSL=85951, hAcc=14, vAcc=12)>
<UBX(NAV-POSLLH, iTOW=08:18:59, lon=23.5067683, lat=62.804163, height=105649, hMSL=85305, hAcc=14, vAcc=13)>
<UBX(NAV-POSLLH, iTOW=08:19:00, lon=23.5065724, lat=62.8041292, height=104969, hMSL=84624, hAcc=14, vAcc=13)>
<UBX(NAV-POSLLH, iTOW=08:19:01, lon=23.5063707, lat=62.8040925, height=104300, hMSL=83956, hAcc=14, vAcc=12)>
<UBX(NAV-POSLLH, iTOW=08:19:02, lon=23.5061632, lat=62.8040534, height=103629, hMSL=83284, hAcc=14, vAcc=12)>
<UBX(NAV-POSLLH, iTOW=08:19:03, lon=23.5059493, lat=62.8040115, height=102912, hMSL=82567, hAcc=14, vAcc=12)>
<UBX(NAV-POSLLH, iTOW=08:19:04, lon=23.5057302, lat=62.8039681, height=102205, hMSL=81861, hAcc=14, vAcc=12)>
<UBX(NAV-POSLLH, iTOW=08:19:05, lon=23.5055069, lat=62.8039228, height=101437, hMSL=81092, hAcc=15, vAcc=15)>
<UBX(NAV-POSLLH, iTOW=08:19:06, lon=23.5052787, lat=62.8038762, height=100615, hMSL=80270, hAcc=14, vAcc=15)>
<UBX(NAV-POSLLH, iTOW=08:19:07, lon=23.5050468, lat=62.8038283, height=99896, hMSL=79551, hAcc=15, vAcc=17)>
<UBX(NAV-POSLLH, iTOW=08:19:08, lon=23.5048107, lat=62.8037811, height=99253, hMSL=78908, hAcc=14, vAcc=17)>
<UBX(NAV-POSLLH, iTOW=08:19:09, lon=23.5045713, lat=62.8037343, height=98755, hMSL=78410, hAcc=14, vAcc=18)>
<UBX(NAV-POSLLH, iTOW=08:19:10, lon=23.5043271, lat=62.8036901, height=98346, hMSL=78001, hAcc=14, vAcc=19)>
<UBX(NAV-POSLLH, iTOW=08:19:11, lon=23.50408, lat=62.8036473, height=98009, hMSL=77664, hAcc=14, vAcc=14)>
<UBX(NAV-POSLLH, iTOW=08:19:12, lon=23.5038317, lat=62.8036057, height=97797, hMSL=77452, hAcc=14, vAcc=12)>
<UBX(NAV-POSLLH, iTOW=08:19:13, lon=23.5035816, lat=62.8035696, height=97551, hMSL=77205, hAcc=14, vAcc=12)>
<UBX(NAV-POSLLH, iTOW=08:19:14, lon=23.5033331, lat=62.8035394, height=97572, hMSL=77227, hAcc=14, vAcc=13)>
<UBX(NAV-POSLLH, iTOW=08:19:15, lon=23.5030892, lat=62.8035132, height=97547, hMSL=77201, hAcc=14, vAcc=16)>
<UBX(NAV-POSLLH, iTOW=08:19:16, lon=23.5028497, lat=62.80349, height=97501, hMSL=77156, hAcc=14, vAcc=13)>
<UBX(NAV-POSLLH, iTOW=08:19:17, lon=23.5026164, lat=62.8034684, height=97634, hMSL=77288, hAcc=14, vAcc=12)>
<UBX(NAV-POSLLH, iTOW=08:19:18, lon=23.5023901, lat=62.8034474, height=97972, hMSL=77626, hAcc=14, vAcc=12)>
<UBX(NAV-POSLLH, iTOW=08:19:19, lon=23.502171, lat=62.8034272, height=98512, hMSL=78166, hAcc=16, vAcc=19)>
<UBX(NAV-POSLLH, iTOW=08:19:20, lon=23.5019587, lat=62.8034082, height=99092, hMSL=78746, hAcc=14, vAcc=14)>
<UBX(NAV-POSLLH, iTOW=08:19:21, lon=23.5017491, lat=62.8033911, height=99864, hMSL=79518, hAcc=14, vAcc=15)>
<UBX(NAV-POSLLH, iTOW=08:19:22, lon=23.5015447, lat=62.8033761, height=100565, hMSL=80219, hAcc=14, vAcc=18)>
<UBX(NAV-POSLLH, iTOW=08:19:23, lon=23.5013454, lat=62.8033673, height=101270, hMSL=80924, hAcc=14, vAcc=16)>
<UBX(NAV-POSLLH, iTOW=08:19:24, lon=23.501146, lat=62.8033681, height=101795, hMSL=81448, hAcc=14, vAcc=16)>
<UBX(NAV-POSLLH, iTOW=08:19:25, lon=23.5009468, lat=62.8033771, height=102227, hMSL=81881, hAcc=25, vAcc=37)>
<UBX(NAV-POSLLH, iTOW=08:19:26, lon=23.5007486, lat=62.8033954, height=102704, hMSL=82358, hAcc=21, vAcc=36)>
<UBX(NAV-POSLLH, iTOW=08:19:27, lon=23.5005551, lat=62.8034218, height=103225, hMSL=82878, hAcc=22, vAcc=44)>
<UBX(NAV-POSLLH, iTOW=08:19:28, lon=23.5003662, lat=62.8034555, height=103451, hMSL=83104, hAcc=19, vAcc=33)>
<UBX(NAV-POSLLH, iTOW=08:19:29, lon=23.5001807, lat=62.8034951, height=103459, hMSL=83112, hAcc=14, vAcc=37)>
<UBX(NAV-POSLLH, iTOW=08:19:30, lon=23.499991, lat=62.8035367, height=103322, hMSL=82975, hAcc=32, vAcc=47)>
<UBX(NAV-POSLLH, iTOW=08:19:31, lon=23.4997986, lat=62.8035804, height=103133, hMSL=82785, hAcc=124, vAcc=176)>
<UBX(NAV-POSLLH, iTOW=08:19:32, lon=23.499606, lat=62.8036266, height=102946, hMSL=82599, hAcc=181, vAcc=308)>
<UBX(NAV-POSLLH, iTOW=08:19:33, lon=23.4994201, lat=62.8036776, height=103005, hMSL=82658, hAcc=195, vAcc=279)>
<UBX(NAV-POSLLH, iTOW=08:19:34, lon=23.4992346, lat=62.8037302, height=102983, hMSL=82635, hAcc=79, vAcc=130)>
<UBX(NAV-POSLLH, iTOW=08:19:35, lon=23.499057, lat=62.803788, height=103148, hMSL=82800, hAcc=79, vAcc=116)>
<UBX(NAV-POSLLH, iTOW=08:19:36, lon=23.4988968, lat=62.8038533, height=103423, hMSL=83075, hAcc=138, vAcc=242)>
<UBX(NAV-POSLLH, iTOW=08:19:37, lon=23.4987531, lat=62.8039253, height=103467, hMSL=83119, hAcc=225, vAcc=406)>
<UBX(NAV-POSLLH, iTOW=08:19:38, lon=23.4986238, lat=62.8040022, height=103078, hMSL=82730, hAcc=286, vAcc=508)>
<UBX(NAV-POSLLH, iTOW=08:19:39, lon=23.4985019, lat=62.8040875, height=103572, hMSL=83223, hAcc=216, vAcc=291)>
<UBX(NAV-POSLLH, iTOW=08:19:40, lon=23.498396, lat=62.8041784, height=103600, hMSL=83252, hAcc=188, vAcc=307)>
<UBX(NAV-POSLLH, iTOW=08:19:41, lon=23.4982892, lat=62.804271, height=103233, hMSL=82885, hAcc=71, vAcc=87)>
<UBX(NAV-POSLLH, iTOW=08:19:42, lon=23.4981886, lat=62.8043641, height=103402, hMSL=83054, hAcc=63, vAcc=67)>
<UBX(NAV-POSLLH, iTOW=08:19:43, lon=23.4980881, lat=62.8044567, height=103499, hMSL=83150, hAcc=70, vAcc=77)>
<UBX(NAV-POSLLH, iTOW=08:19:44, lon=23.4979869, lat=62.8045483, height=103707, hMSL=83358, hAcc=46, vAcc=62)>
<UBX(NAV-POSLLH, iTOW=08:19:45, lon=23.4978849, lat=62.8046378, height=103875, hMSL=83526, hAcc=49, vAcc=61)>
<UBX(NAV-POSLLH, iTOW=08:19:46, lon=23.4977847, lat=62.8047258, height=104144, hMSL=83795, hAcc=55, vAcc=77)>
<UBX(NAV-POSLLH, iTOW=08:19:47, lon=23.4976866, lat=62.8048121, height=104365, hMSL=84016, hAcc=48, vAcc=59)>
<UBX(NAV-POSLLH, iTOW=08:19:48, lon=23.4975885, lat=62.8048985, height=104511, hMSL=84162, hAcc=70, vAcc=102)>
<UBX(NAV-POSLLH, iTOW=08:19:49, lon=23.4974879, lat=62.8049867, height=104664, hMSL=84315, hAcc=70, vAcc=74)>
<UBX(NAV-POSLLH, iTOW=08:19:50, lon=23.4973863, lat=62.8050767, height=104785, hMSL=84435, hAcc=69, vAcc=81)>
<UBX(NAV-POSLLH, iTOW=08:19:51, lon=23.4972833, lat=62.805168, height=104935, hMSL=84586, hAcc=60, vAcc=72)>
<UBX(NAV-POSLLH, iTOW=08:19:52, lon=23.4971807, lat=62.8052589, height=104937, hMSL=84587, hAcc=130, vAcc=206)>
<UBX(NAV-POSLLH, iTOW=08:19:53, lon=23.4970821, lat=62.805349, height=105122, hMSL=84772, hAcc=167, vAcc=226)>
<UBX(NAV-POSLLH, iTOW=08:19:54, lon=23.4969908, lat=62.8054392, height=105161, hMSL=84811, hAcc=113, vAcc=115)>
<UBX(NAV-POSLLH, iTOW=08:19:55, lon=23.4969119, lat=62.805527, height=105246, hMSL=84896, hAcc=117, vAcc=105)>
<UBX(NAV-POSLLH, iTOW=08:19:56, lon=23.4968367, lat=62.8056129, height=105413, hMSL=85062, hAcc=103, vAcc=110)>
<UBX(NAV-POSLLH, iTOW=08:19:57, lon=23.4967507, lat=62.8056922, height=105525, hMSL=85175, hAcc=86, vAcc=121)>
<UBX(NAV-POSLLH, iTOW=08:19:58, lon=23.4966609, lat=62.8057666, height=105560, hMSL=85210, hAcc=64, vAcc=85)>
<UBX(NAV-POSLLH, iTOW=08:19:59, lon=23.4965904, lat=62.8058387, height=105631, hMSL=85281, hAcc=59, vAcc=77)>
<UBX(NAV-POSLLH, iTOW=08:20:00, lon=23.4965535, lat=62.8059073, height=105631, hMSL=85280, hAcc=62, vAcc=77)>
<UBX(NAV-POSLLH, iTOW=08:20:01, lon=23.4965453, lat=62.8059643, height=105648, hMSL=85297, hAcc=63, vAcc=74)>
<UBX(NAV-POSLLH, iTOW=08:20:02, lon=23.4965545, lat=62.8060083, height=106708, hMSL=86357, hAcc=22, vAcc=35)>
<UBX(NAV-POSLLH, iTOW=08:20:03, lon=23.4965542, lat=62.8060327, height=106682, hMSL=86331, hAcc=24, vAcc=44)>
<UBX(NAV-POSLLH, iTOW=08:20:04, lon=23.4965534, lat=62.8060444, height=106758, hMSL=86408, hAcc=19, vAcc=36)>
<UBX(NAV-POSLLH, iTOW=08:20:05, lon=23.496553, lat=62.8060466, height=106743, hMSL=86392, hAcc=15, vAcc=25)>
<UBX(NAV-POSLLH, iTOW=08:20:06, lon=23.4965531, lat=62.8060466, height=106717, hMSL=86366, hAcc=14, vAcc=21)>
<UBX(NAV-POSLLH, iTOW=08:20:07, lon=23.4965531, lat=62.8060466, height=106727, hMSL=86376, hAcc=14, vAcc=19)>
<UBX(NAV-POSLLH, iTOW=08:20:08, lon=23.4965531, lat=62.8060466, height=106732, hMSL=86381, hAcc=14, vAcc=18)>
<UBX(NAV-POSLLH, iTOW=08:20:09, lon=23.4965531, lat=62.8060466, height=106738, hMSL=86387, hAcc=14, vAcc=17)>
<UBX(NAV-POSLLH, iTOW=08:20:10, lon=23.4965531, lat=62.8060466, height=106735, hMSL=86384, hAcc=14, vAcc=16)>
